Name,Latitude,Longitude
Rise Health,48.434285630627706,-123.34531053918121
Lasik Md,48.4290325,-123.364191
Stillpoint Community Acupuncture,48.4356751,-123.387345
Victoria Youth Clinic,48.4264605,-123.369277
Esquimalt Treatment Centre & Walk-In Clinic,48.4302531,-123.4015963
Tillicum Medical Clinic,48.4544821,-123.3948407
